[
  {
    "name": "Samara",
    "lat": 53.322103667052374,
    "lon": 50.060883
  },
  {
    "name": "Voronezh",
    "lat": 51.69427263552065,
    "lon": 39.335954999999984
  },
  {
    "name": "Moscow",
    "lat": 55.584222181163646,
    "lon": 37.38552449999999
  },
  {
    "name": "Saint Petersburg",
    "lat": 59.91806799340517,
    "lon": 30.304899499999895
  },
  {
    "name": "Sochi",
    "lat": 43.713347609898335,
    "lon": 39.580032
  },
  {
    "name": "Kaliningrad",
    "lat": 54.70452890797801,
    "lon": 20.473791500000015
  },
  {
    "name": "Arkhangelsk",
    "lat": 64.56272891354934,
    "lon": 40.55266499999995
  },
  {
    "name": "Vladivostok",
    "lat": 43.17344070034154,
    "lon": 132.03930749999995
  },
  {
    "name": "Stavropol",
    "lat": 45.044963250732465,
    "lon": 41.971387999999976
  },
  {
    "name": "Nizhny Novgorod",
    "lat": 56.30464518047854,
    "lon": 43.8335234999999
  }
]
